{"type":"FeatureCollection","features":[{"type":"Feature","properties":{"marker-color":"#7f0f06","marker-size":"medium","marker-symbol":"police","name":"Broome"},"geometry":{"type":"Point","coordinates":[122.22272872924803,-17.956852307553262]}},{"type":"Feature","properties":{"marker-color":"#7f0f06","marker-size":"medium","marker-symbol":"police","name":"Darwin"},"geometry":{"type":"Point","coordinates":[130.84064483642578,-12.45803271963489]}},{"type":"Feature","properties":{"marker-color":"#7f0f06","marker-size":"medium","marker-symbol":"police","name":"Nhulunbuy"},"geometry":{"type":"Point","coordinates":[136.77978515625,-12.17888105896071]}},{"type":"Feature","properties":{"marker-size":"medium","marker-symbol":"police","name":"Weipa","marker-color":"#7f0f06"},"geometry":{"type":"Point","coordinates":[141.87057495117188,-12.637825782346825]}},{"type":"Feature","properties":{"marker-color":"#7f0f06","marker-size":"medium","marker-symbol":"police","name":"Bamaga"},"geometry":{"type":"Point","coordinates":[142.39148139953613,-10.888265200528407]}},{"type":"Feature","properties":{"marker-color":"#7f0f06","marker-size":"medium","marker-symbol":"police","name":"Cairns"},"geometry":{"type":"Point","coordinates":[145.76522827148438,-16.92282231752717]}},{"type":"Feature","properties":{"marker-color":"#7f0f06","marker-size":"medium","name":"Horn Island, Torres Strait","marker-symbol":"police"},"geometry":{"type":"Point","coordinates":[142.24651336669922,-10.59497716180058]}},{"type":"Feature","properties":{"marker-color":"#7f0f06","marker-size":"medium","name":"Thursday Island, Torres Strait","marker-symbol":"police"},"geometry":{"type":"Point","coordinates":[142.21960544586182,-10.58548568211827]}}]}